<t1>
<marker lat="21.1712" lng="79.1180" station="NILESH GIRI" customer="1015948" type="0"/>
<marker lat="21.1129      " lng="79.1227" station="S.K.MARKENTING" customer="1016281" type="0"/>
<marker lat="21.11378  " lng="79.1040" station="ARUN MILK CENTER" customer="1015992" type="0"/>
<marker lat="21.11954 ï¿½ ï¿½ ï¿" lng="79.0175" station="DEEPAK B. JICHKAR" customer="1015954ï¿½ ï¿½ ï¿½ ï¿½ ï¿½ ï¿½ ï¿½ ï¿½ ï¿½ ï¿½" type="0"/>
<marker lat="21.12951" lng="79.1047" station="VINOD K. CHOUDHARY" customer="1015952" type="0"/>
<marker lat="21.12951    " lng="79.10477    " station="WARDHMAN SALES" customer="1015960" type="0"/>
<marker lat="21.14142  " lng="79.06465" station="MOHAN SHANKAR CHANDELE" customer="1015950" type="0"/>
<marker lat="21.14142    " lng="79.06465" station="PARUL COLLECTION" customer="1015949" type="0"/>
<marker lat="21.15303    " lng="78.9700" station="Vaidehi  Enterprises" customer="1016784" type="0"/>
<marker lat="21.15682" lng="79.1012" station="GAURKAR MILK and DAIRY PRODUCTS" customer="1015963" type="0"/>
<marker lat="21.16139  " lng="79.0834" station="SAUMYA MILK AGENCY" customer="1015958" type="0"/>
<marker lat="21.16139    " lng="79.0833" station="SURENDRA DISTRIBUTORS" customer="1015964" type="0"/>
<marker lat="21.16979" lng="79.079" station="THIMIKA ENTERPRISE" customer="1015968" type="0"/>
<marker lat="21.18556" lng="79.0800" station="NIDHI SALES AGENCY" customer="1015935" type="0"/>
<marker lat="21.1780" lng="79.0531" station="Amol Enterprises" customer="1017160" type="0"/>
<marker lat="21.0997" lng="79.0640" station="Shri Krishna Dairy" customer="1016697" type="0"/>
<marker lat="21.1271" lng="79.110" station="DHAN SADGURU SALE" customer="1015955" type="0"/>
<marker lat="21.1296" lng="79.1049" station="NISHA NARESNDRA LAUTREY" customer="1015951" type="0"/>
<marker lat="21.1176" lng="79.0170" station="GUPTA MILK AGENCY" customer="1015947" type="0"/>
<marker lat="21.3816" lng="78.9233" station="CITY COLLECTION" customer="1016736" type="0"/>
<marker lat="21.1453" lng="79.0828" station="Satguru Sales" customer="1017071" type="0"/>
<marker lat="20.722" lng="78.6026" station="Ankush Trading Co." customer="1017371" type="0"/>
<marker lat="21.1053" lng="78.988" station="Shivmani Marketing" customer="1017385" type="0"/>
<marker lat="21.1295" lng="79.1047" station="Ashutosh  Dwivedi" customer="1016838" type="0"/>
<marker lat="21.1497" lng="79.1577" station="PAWAN MILK CENTER" customer="1015967" type="0"/>
<marker lat="21.0430" lng="79.055" station="Hotel Sun and Sand" customer="1017135" type="0"/>
<marker lat="21.1262" lng="79.1102" station="Shree Gajanan Milk Center" customer="1015946" type="0"/>
<marker lat="21.1462" lng="79.1053" station="Hariom Agency" customer="1017236" type="0"/>
<marker lat="21.1394" lng="79.0522" station="Rohit Milk and Dhanya Bhandar" customer="1017350" type="0"/>
<marker lat="21.1295" lng="79.1047" station="Mahi Milk Agency" customer="1017478" type="0"/>
<marker lat="21.0867" lng="79.0638" station="Pride Hotels Ltd." customer="1017594" type="0"/>
<marker lat="21.1462" lng="79.1053" station="SIDDH ENTERPRISES" customer="1015959" type="0"/>
<marker lat="21.1855" lng="79.0800" station="KANOJIA ENTERPRISES" customer="1015953" type="0"/>
<a1 datetime="unknown"/>
</t1>